City_ID,City,Lat,Lng,Max Temp,Humidity,Cloudiness,Wind Speed,Country,Date
0,grytviken,-54.2811,-36.5092,36.68,88,2,11.88,GS,1696209778
1,bilibino,68.0546,166.4372,29.95,79,100,4.47,RU,1696209778
2,wailua homesteads,22.0669,-159.378,86.43,83,40,11.5,US,1696209682
3,la sarre,48.8002,-79.1996,57.2,69,90,3.65,CA,1696209778
4,st. john's,47.5649,-52.7093,55.98,87,40,23.02,CA,1696209725
5,vila velha,-20.3297,-40.2925,71.55,90,40,10.36,BR,1696209779
6,metkovic,43.0542,17.6483,61.27,52,0,6.38,HR,1696209779
7,nyurba,63.2842,118.3319,42.04,81,100,5.01,RU,1696209779
8,tura,25.5198,90.2201,75.61,96,93,2.89,IN,1696209779
9,port-aux-francais,-49.35,70.2167,39.78,83,100,46.68,TF,1696209779
10,wamba,8.9333,8.6,73.11,91,100,0.63,NG,1696209779
11,ilulissat,69.2167,-51.1,30.22,55,3,5.75,GL,1696209779
12,hithadhoo,-0.6,73.0833,81.7,74,12,13.31,MV,1696209779
13,kirakira,-10.4544,161.9205,83.41,78,90,14.2,SB,1696209779
14,yemva,62.59,50.8594,54.05,86,100,10.0,RU,1696209779
15,kyakhta,50.3508,106.4494,38.64,61,100,12.15,RU,1696209779
16,edinburgh of the seven seas,-37.0676,-12.3116,50.56,59,92,21.63,SH,1696209773
17,stanley,54.868,-1.6985,54.52,95,20,1.14,GB,1696209780
18,hoopstad,-27.8327,25.9083,50.67,75,0,8.75,ZA,1696209780
19,buta,2.7858,24.73,69.53,98,100,0.96,CD,1696209780
20,barvinkove,48.9097,37.0205,60.31,47,100,6.02,UA,1696209780
21,atar,20.5169,-13.0499,87.76,18,93,6.8,MR,1696209780
22,queenstown,-31.8976,26.8753,46.44,80,37,2.64,ZA,1696209780
23,margaret river,-33.95,115.0667,50.9,71,97,25.7,AU,1696209780
24,dudinka,69.4058,86.1778,6.67,100,54,4.0,RU,1696209780
25,papatowai,-46.5619,169.4708,50.38,86,100,16.91,NZ,1696209780
26,invercargill,-46.4,168.35,45.01,86,100,25.01,NZ,1696209722
27,villa union,23.2,-106.2333,88.92,74,20,0.0,MX,1696209781
28,paradip garh,20.3167,86.6167,81.21,85,99,15.77,IN,1696209781
29,ola,59.5833,151.2833,50.14,72,68,3.69,RU,1696209781
30,constantia,44.1833,28.65,61.7,50,87,19.53,RO,1696209781
31,port augusta,-32.5,137.7667,85.37,23,0,8.72,AU,1696209556
32,puerto natales,-51.7236,-72.4875,36.07,77,93,9.15,CL,1696209781
33,kalianget,-7.05,113.9333,82.18,61,97,10.85,ID,1696209781
34,lospalos,-8.5186,127.0025,81.61,57,94,10.2,TL,1696209781
35,jamestown,42.097,-79.2353,64.04,89,75,6.91,US,1696209773
36,west island,-12.1568,96.8225,78.78,73,40,17.27,CC,1696209657
37,lata,40.1629,-8.3327,63.91,64,0,0.96,PT,1696209781
38,avarua,-21.2078,-159.775,73.45,94,100,8.05,CK,1696209782
39,xining,36.6167,101.7667,53.37,79,100,0.38,CN,1696209782
40,ambodifotatra,-16.9833,49.85,73.42,87,54,7.34,MG,1696209782
41,klyuchi,52.2667,79.1667,40.51,86,0,6.33,RU,1696209782
42,mihalgazi,40.0262,30.5771,65.8,94,95,5.66,TR,1696209782
43,haiku-pauwela,20.9219,-156.3051,86.02,48,20,24.16,US,1696209782
44,bethel,41.3712,-73.414,66.94,84,0,0.0,US,1696209549
45,adamstown,-25.066,-130.1015,68.85,80,15,26.44,PN,1696209782
46,colonia,50.9333,6.95,63.82,84,0,2.3,DE,1696209745
47,lebu,-37.6167,-73.65,47.19,82,58,2.95,CL,1696209782
48,plastun,44.7561,136.2939,51.1,54,44,14.7,RU,1696209783
49,saipan,15.1355,145.701,88.5,79,40,13.8,MP,1696209783
50,blackmans bay,-43.0167,147.3167,64.53,42,100,7.7,AU,1696209783
51,rio grande,-32.035,-52.0986,52.95,76,0,3.62,BR,1696209603
52,utrik,11.2278,169.8474,83.32,79,100,14.88,MH,1696209783
53,port alfred,-33.5906,26.891,56.17,85,1,3.0,ZA,1696209783
54,waitangi,-43.9535,-176.5597,58.82,86,52,5.99,NZ,1696209783
55,san patricio,28.017,-97.5169,82.81,76,4,12.12,US,1696209783
56,vilyuchinsk,52.9306,158.4028,43.07,95,100,11.83,RU,1696209784
57,hermanus,-34.4187,19.2345,55.81,67,0,8.32,ZA,1696209784
58,nihtaur,29.3333,78.3833,71.85,58,30,6.38,IN,1696209784
59,aswan,24.0934,32.907,87.1,28,0,10.36,EG,1696209784
60,zag,46.9441,99.165,36.68,72,50,4.18,MN,1696209784
61,nuuk,64.1835,-51.7216,36.21,75,100,3.44,GL,1696209784
62,balabac,7.9868,117.0645,82.36,82,100,18.41,PH,1696209784
63,sim,54.993,57.6982,48.11,83,13,4.56,RU,1696209784
64,tadine,-21.55,167.8833,71.35,64,100,18.54,NC,1696209784
65,ribeira grande,38.5167,-28.7,67.77,80,100,7.0,PT,1696209784
66,kingston,17.997,-76.7936,81.25,95,97,1.41,JM,1696209643
67,atafu village,-8.5421,-172.5159,83.75,68,58,5.14,TK,1696209785
68,fortuna,40.5982,-124.1573,61.14,85,0,12.66,US,1696209785
69,port saint john's,-31.6229,29.5448,61.16,69,80,9.26,ZA,1696209785
70,alofi,-19.0595,-169.9187,78.69,57,100,20.71,NU,1696209785
71,afaahiti,-17.75,-149.2833,82.27,87,18,14.63,PF,1696209785
72,udachny,66.4167,112.4,30.45,100,100,23.22,RU,1696209785
73,yellowknife,62.456,-114.3525,47.41,99,100,9.22,CA,1696209785
74,kapa'a,22.0752,-159.319,87.78,83,40,11.5,US,1696209785
75,iqaluit,63.7506,-68.5145,37.13,93,100,2.3,CA,1696209786
76,howrah,22.5892,88.3103,80.6,94,75,3.44,IN,1696209786
77,bethanie,-26.4833,17.15,67.08,20,0,5.79,NA,1696209786
78,hadibu,12.65,54.0333,79.0,84,14,6.46,YE,1696209786
79,walvis bay,-22.9575,14.5053,53.1,93,0,5.75,NA,1696209786
80,tiksi,71.6872,128.8694,20.61,83,18,4.18,RU,1696209786
81,kangaba,11.9333,-8.4167,75.0,83,100,2.13,ML,1696209786
82,isla del bosque,22.7333,-105.85,84.31,77,0,6.67,MX,1696209786
83,nova vicosa,-17.8919,-39.3719,71.87,76,100,8.9,BR,1696209786
84,anzio,41.4853,12.6179,71.31,63,0,2.15,IT,1696209786
85,taoyuan city,24.9937,121.297,82.99,86,75,14.97,TW,1696209786
86,kerikeri,-35.2268,173.9474,68.63,41,1,10.69,NZ,1696209786
87,port elizabeth,-33.918,25.5701,59.29,79,0,13.8,ZA,1696209787
88,vorgashor,67.5833,63.95,48.72,95,100,14.81,RU,1696209787
89,tindouf,27.6711,-8.1474,77.45,19,0,9.22,DZ,1696209787
90,anadyr,64.75,177.4833,37.9,51,0,13.0,RU,1696209787
91,neryungri,56.6709,124.6491,40.24,56,34,5.01,RU,1696209787
92,menongue,-14.6585,17.691,62.87,73,7,4.0,AO,1696209787
93,ushuaia,-54.8,-68.3,35.26,69,100,13.8,AR,1696209787
94,san isidro,-12.1167,-77.05,65.79,77,75,16.11,PE,1696209787
95,vadso,70.0744,29.7487,38.28,64,75,11.5,NO,1696209787
96,whitehorse,60.7161,-135.0538,48.97,66,75,13.8,CA,1696209788
97,greymouth,-42.4667,171.2,52.39,84,96,24.83,NZ,1696209788
98,severo-yeniseyskiy,60.3725,93.0408,26.58,87,100,8.01,RU,1696209788
99,gillette,44.2911,-105.5022,52.72,82,0,5.75,US,1696209788
100,gadzhiyevo,69.2551,33.3362,39.78,93,100,24.92,RU,1696209788
101,aguadulce,8.25,-80.55,76.37,76,100,1.01,PA,1696209788
102,fonte boa,-2.4959,-66.2662,80.47,67,100,0.94,BR,1696209788
103,vernon,50.2581,-119.2691,59.94,62,14,2.3,CA,1696209788
104,kertih,4.5141,103.4483,78.82,94,20,0.0,MY,1696209788
105,albany,42.6001,-73.9662,65.8,89,5,4.36,US,1696209789
106,lazaro cardenas,17.9583,-102.2,83.88,83,26,5.41,MX,1696209789
107,timbuktu,16.7735,-3.0074,98.04,17,100,6.31,ML,1696209789
108,stornoway,58.2093,-6.3865,55.36,82,40,19.57,GB,1696209789
109,talnakh,69.4865,88.3972,9.81,96,86,7.56,RU,1696209789
110,bredasdorp,-34.5322,20.0403,50.0,90,6,3.76,ZA,1696209789
111,georgetown,5.4112,100.3354,84.15,88,20,3.44,MY,1696209708
112,tazacorte,28.629,-17.9293,80.15,35,75,9.22,ES,1696209789
113,vila franca do campo,37.7167,-25.4333,68.41,99,89,8.03,PT,1696209789
114,nemuro,43.3236,145.575,61.34,76,0,8.61,JP,1696209789
115,labuan,5.2767,115.2417,84.56,74,20,3.44,MY,1696209790
116,naze,28.3667,129.4833,77.92,79,28,16.15,JP,1696209790
117,daru,-9.0763,143.2092,81.46,76,77,13.82,PG,1696209790
118,rikaze,29.25,88.8833,54.07,50,78,2.17,CN,1696209790
119,usol'ye,59.4268,56.6808,51.15,76,88,11.23,RU,1696209790
120,lompoc,34.6391,-120.4579,67.01,76,0,14.0,US,1696209790
121,pasan,22.85,82.2,72.54,97,100,6.51,IN,1696209790
122,mount gambier,-37.8333,140.7667,68.56,39,0,11.01,AU,1696209790
123,tabou,4.423,-7.3528,76.51,89,63,8.46,CI,1696209790
124,srikakulam,18.3,83.9,79.88,89,100,7.56,IN,1696209790
125,petropavlovsk-kamchatsky,53.0452,158.6483,41.59,100,100,4.47,RU,1696209790
126,punta arenas,-53.15,-70.9167,33.91,86,20,14.97,CL,1696209790
127,badger,64.8,-147.5333,48.45,64,100,10.36,US,1696209791
128,singkil,-7.9855,111.4161,82.94,56,3,7.4,ID,1696209791
129,pisco,-13.7,-76.2167,65.01,88,0,17.27,PE,1696209791
130,fort st. john,56.2499,-120.8529,49.89,62,75,16.11,CA,1696209791
131,lishui,28.4604,119.9103,73.8,73,24,3.0,CN,1696209659
132,jayapura,-2.5333,140.7,87.19,64,9,3.29,ID,1696209791
133,fort bragg,35.139,-79.006,69.35,88,0,0.0,US,1696209791
134,egilsstadir,65.2653,-14.3948,42.71,93,100,23.02,IS,1696209791
135,lorengau,-2.0226,147.2712,85.96,65,32,3.36,PG,1696209791
136,auxerre,47.8,3.5667,56.62,60,34,4.32,FR,1696209791
137,aras-asan,8.8908,126.3033,81.72,77,100,5.55,PH,1696209791
138,kununurra,-15.7667,128.7333,93.18,46,8,4.61,AU,1696209792
139,xingtai,37.0631,114.4942,67.21,48,100,6.35,CN,1696209792
140,keflavik,64.0049,-22.5624,46.83,76,0,8.05,IS,1696209792
141,hammerfest,70.6634,23.6821,36.05,87,75,9.22,NO,1696209792
142,esens,53.6487,7.6127,63.01,92,100,3.44,DE,1696209792
143,skidel',53.5904,24.2478,46.22,94,0,6.26,BY,1696209792
144,tucumcari,35.1717,-103.725,66.04,94,40,8.05,US,1696209792
145,hamilton,39.1834,-84.5333,72.84,76,0,0.0,US,1696209669
146,lalin,42.7167,-8.1167,64.45,70,46,2.89,ES,1696209792
147,port macquarie,-31.4333,152.9167,75.22,56,8,11.74,AU,1696209609
148,hun,29.1268,15.9477,70.41,65,6,4.76,LY,1696209792
149,lihue,21.9789,-159.3672,87.04,79,40,11.5,US,1696209595
150,puerto ayora,-0.7393,-90.3518,72.55,96,100,1.01,EC,1696209793
151,constitucion,-35.3333,-72.4167,50.0,81,100,5.28,CL,1696209793
152,el calafate,-50.3408,-72.2768,39.36,61,63,3.09,AR,1696209793
153,saint-pierre,-21.3393,55.4781,71.28,60,0,9.22,RE,1696209793
154,adamovka,51.5223,59.9396,51.98,69,11,7.0,RU,1696209793
155,kidal,18.4411,1.4078,90.28,27,52,10.98,ML,1696209793
156,fauske,67.2588,15.3918,42.84,85,57,3.09,NO,1696209793
157,mount isa,-20.7333,139.5,91.17,19,0,10.36,AU,1696209793
158,hawaiian paradise park,19.5933,-154.9731,82.04,76,75,5.75,US,1696209654
159,teluk nibung,3.001,99.8164,78.49,90,86,4.99,ID,1696209793
160,suntar,62.1444,117.6319,37.13,93,100,14.0,RU,1696209793
161,trzebiatow,54.0615,15.2648,52.86,91,100,7.54,PL,1696209794
162,east london,-33.0153,27.9116,58.32,72,5,12.44,ZA,1696209794
163,tolanaro,-25.0319,46.9987,75.27,53,20,11.5,MG,1696209794
164,yesilova,37.5081,29.7547,53.06,91,3,4.97,TR,1696209794
165,sinabang,2.4803,96.3801,80.11,82,100,12.35,ID,1696209794
166,karratha,-20.7377,116.8463,82.15,26,0,19.77,AU,1696209794
167,port mathurin,-19.6833,63.4167,73.49,78,8,15.08,MU,1696209794
168,chamical,-30.36,-66.314,67.84,41,0,9.91,AR,1696209674
169,yuzhno-kurilsk,44.0306,145.8556,57.38,91,14,10.16,RU,1696209794
170,magadan,59.5667,150.8,49.53,80,81,4.0,RU,1696209794
171,boende,-0.2167,20.8667,72.18,95,16,0.94,CD,1696209794
172,iskateley,67.6803,53.1512,51.03,96,87,8.01,RU,1696209795
173,cadale,2.7603,46.3222,78.37,85,14,14.14,SO,1696209795
174,college,64.8569,-147.8028,48.52,62,100,10.36,US,1696209795
175,onega,63.9061,38.1404,45.25,91,100,12.77,RU,1696209795
176,trujillo,-8.116,-79.03,66.16,82,0,10.36,PE,1696209795
177,palmer,42.1584,-72.3287,65.57,84,0,3.44,US,1696209795
178,novovarshavka,54.1721,74.6946,39.87,43,0,2.89,RU,1696209795
179,callao,-12.0667,-77.15,66.49,77,75,16.11,PE,1696209795
180,qaqortoq,60.7167,-46.0333,35.78,80,100,4.18,GL,1696209795
181,enewetak,11.3474,162.3373,84.51,75,82,8.41,MH,1696209678
182,luderitz,-26.6481,15.1594,59.95,76,0,5.37,NA,1696209796
183,sumbe,-11.2061,13.8437,72.37,87,100,7.38,AO,1696209796
184,olonkinbyen,70.9221,-8.7187,31.77,86,100,17.65,SJ,1696209796
185,angaur state,6.906,134.13,82.98,76,89,6.15,PW,1696209796
186,turochak,52.2576,87.1224,38.39,94,0,2.28,RU,1696209796
187,sao jose da coroa grande,-8.8978,-35.1478,73.78,76,0,5.86,BR,1696209796
188,angarsk,52.5367,103.8864,38.12,66,10,3.65,RU,1696209796
189,malvan,16.0667,73.4667,75.38,84,100,6.22,IN,1696209796
190,isafjordur,66.0755,-23.124,41.72,95,100,23.94,IS,1696209796
191,prince george,53.9166,-122.753,47.64,93,100,6.91,CA,1696209634
192,uturoa,-16.7333,-151.4333,78.6,81,11,15.3,PF,1696209797
193,zapolyarnyy,69.4154,30.8136,36.68,78,87,16.04,RU,1696209797
194,arraial do cabo,-22.9661,-42.0278,69.96,96,97,8.23,BR,1696209797
195,anshun,26.25,105.9333,69.22,84,63,10.78,CN,1696209797
196,kismayo,-0.3582,42.5454,77.7,77,3,13.6,SO,1696209797
197,alice springs,-23.7,133.8833,96.35,13,8,21.85,AU,1696209782
198,kapuskasing,49.4169,-82.4331,60.8,88,100,4.61,CA,1696209797
199,darwin,-12.4611,130.8418,85.98,62,75,3.44,AU,1696209575
200,ust-nera,64.5667,143.2,35.22,56,30,5.99,RU,1696209797
201,peno,56.9262,32.7426,46.13,96,26,6.08,RU,1696209797
202,tromso,69.6496,18.957,39.22,81,100,2.3,NO,1696209797
203,mahanoro,-19.9,48.8,72.01,91,43,9.13,MG,1696209798
204,nantucket,41.2835,-70.0995,59.14,94,75,10.36,US,1696209798
205,eforie sud,44.0229,28.6494,61.81,51,72,19.69,RO,1696209798
206,sake,-1.5736,29.045,63.68,83,85,0.81,CD,1696209798
207,caleta de carquin,-11.0925,-77.6267,66.36,86,64,12.53,PE,1696209798
208,homer,59.6425,-151.5483,51.67,82,75,5.99,US,1696209798
209,nouadhibou,20.931,-17.0347,80.58,47,0,17.27,MR,1696209798
210,kenai,60.5544,-151.2583,49.14,82,40,5.75,US,1696209798
211,wladyslawowo,54.7909,18.4009,53.94,91,12,8.68,PL,1696209798
212,lerwick,60.1545,-1.1494,51.8,85,100,15.3,GB,1696209798
213,colesberg,-30.72,25.0972,49.78,42,0,7.07,ZA,1696209799
214,brokopondo,4.75,-55.1667,83.26,56,100,4.43,SR,1696209799
215,kodiak,57.79,-152.4072,53.11,66,0,10.36,US,1696209799
216,ivanivka,46.7208,34.553,59.41,68,100,11.77,UA,1696209799
217,tofol,5.3248,163.0078,87.58,66,40,2.3,FM,1696209799
218,mogocha,53.7333,119.7667,42.75,70,77,1.99,RU,1696209799
219,kavaratti,10.5669,72.642,81.61,80,100,13.29,IN,1696209799
220,tiassale,5.8983,-4.8283,73.44,99,100,2.26,CI,1696209799
221,olinda,-8.0089,-34.8553,78.53,73,20,5.75,BR,1696209800
222,usinsk,65.9939,57.5281,52.07,89,100,15.01,RU,1696209800
223,coyhaique,-45.5752,-72.0662,41.61,75,0,3.44,CL,1696209800
224,bayanhongor,46.7167,100.1167,34.86,81,46,2.71,MN,1696209800
225,porbandar,21.6422,69.6093,77.65,72,91,7.07,IN,1696209801
226,carnarvon,-24.8667,113.6333,69.85,61,34,12.46,AU,1696209801
227,cabo san lucas,22.8909,-109.9124,89.62,73,0,17.27,MX,1696209690
228,kalmunai,7.4167,81.8167,77.76,85,100,13.02,LK,1696209801
229,eyl,7.9803,49.8164,78.42,85,51,10.94,SO,1696209801
230,noyabrsk,63.1994,75.4507,43.23,93,100,13.0,RU,1696209801
231,swift current,50.2834,-107.8014,47.21,93,100,12.66,CA,1696209801
232,san andres,12.5847,-81.7006,86.02,100,20,4.61,CO,1696209801
233,fang,19.9169,99.2145,73.65,99,100,0.31,TH,1696209801
234,geraldton,-28.7667,114.6,66.61,52,100,18.41,AU,1696209801
235,moroto,2.5345,34.6666,70.81,62,47,0.74,UG,1696209801
236,macau,22.2006,113.5461,87.6,79,40,14.97,MO,1696209802
237,namibe,-15.1961,12.1522,65.1,82,12,7.18,AO,1696209802
238,mutum biyu,8.6333,10.7667,74.37,95,99,3.31,NG,1696209802
239,panaba,21.2833,-88.2667,80.08,84,100,8.55,MX,1696209681
240,sao joao da barra,-21.6403,-41.0511,69.73,97,100,13.31,BR,1696209542
241,chimbarongo,-34.7,-71.05,50.88,88,100,3.87,CL,1696209802
242,nova sintra,14.8667,-24.7167,75.15,77,100,6.69,CV,1696209802
243,salinopolis,-0.6136,-47.3561,80.74,79,45,13.49,BR,1696209802
244,cabedelo,-6.9811,-34.8339,75.87,75,6,9.57,BR,1696209802
245,peterhead,57.5058,-1.7981,54.0,76,49,10.04,GB,1696209802
246,puerto deseado,-47.7503,-65.8938,46.58,53,98,7.94,AR,1696209691
247,kikwit,-5.041,18.8162,73.02,91,79,0.96,CD,1696209803
248,labytnangi,66.6572,66.4183,46.06,98,100,8.03,RU,1696209803
249,igrim,63.1906,64.4162,51.03,83,100,10.0,RU,1696209803
250,gisborne,-38.6533,178.0042,71.37,46,0,12.93,NZ,1696209803
251,la passe,45.5549,-0.8967,64.98,63,8,6.96,FR,1696209803
252,aki,33.5,133.9,75.15,55,100,1.39,JP,1696209803
253,shingu,33.7333,135.9833,74.7,47,100,2.28,JP,1696209803
254,silverton,45.0051,-122.7832,69.64,49,31,5.01,US,1696209803
255,hasaki,35.7333,140.8333,75.6,59,100,20.15,JP,1696209803
256,chardara,41.2547,67.9692,59.36,43,100,4.76,KZ,1696209803
257,riyadh,24.6877,46.7219,75.34,21,3,4.25,SA,1696209803
258,papar,5.7333,115.9333,86.0,73,100,5.32,MY,1696209804
259,pechora,65.1472,57.2244,51.85,94,100,8.99,RU,1696209804
260,flin flon,54.7682,-101.865,39.16,92,100,6.26,CA,1696209804
261,fale old settlement,-9.3852,-171.2468,82.26,76,8,10.85,TK,1696209804
262,hami,42.8,93.45,60.37,42,0,8.1,CN,1696209804
263,tutoia,-2.7619,-42.2744,79.2,85,6,15.59,BR,1696209804
264,goz beida,13.95,20.55,80.96,55,97,4.09,TD,1696209804
265,coquimbo,-29.9533,-71.3436,56.93,76,100,5.75,CL,1696209797
266,mesyagutovo,55.5303,58.2528,44.85,81,28,7.49,RU,1696209804
267,roma,43.2128,-75.4557,64.9,84,0,4.61,US,1696209666
268,khandyga,62.6667,135.6,40.59,96,100,3.85,RU,1696209804
269,villa gesell,-37.2639,-56.973,49.05,83,1,10.13,AR,1696209805
270,porto santo stefano,42.4338,11.1237,60.42,56,0,4.65,IT,1696209805
271,albert lea,43.648,-93.3683,80.62,38,0,5.75,US,1696209599
272,svetlyy,54.675,20.1347,57.96,85,14,7.43,RU,1696209805
273,fukuecho,32.6881,128.8419,77.36,47,75,13.8,JP,1696209805
274,zhanaozen,43.3,52.8,60.55,32,0,10.25,KZ,1696209805
275,saratovskaya,44.7103,39.2244,62.17,87,100,3.0,RU,1696209805
276,jindabyne,-36.4167,148.6333,76.84,18,9,7.7,AU,1696209805
277,yongchuan,29.3514,105.8947,68.34,95,100,2.37,CN,1696209805
278,bima,-8.4667,118.7167,87.94,49,72,4.56,ID,1696209805
279,minjur,13.2667,80.2667,82.42,70,100,14.29,IN,1696209805
280,shiyan,32.6475,110.7781,57.7,96,100,0.6,CN,1696209806
281,sharypovo,55.5403,89.2008,32.25,82,98,4.0,RU,1696209806
282,miranda,3.2499,-76.2281,71.73,89,100,4.99,CO,1696209806
283,sferracavallo,42.726,12.0956,69.37,62,0,4.5,IT,1696209806
284,uvira,-3.4067,29.1458,77.14,66,97,4.03,CD,1696209806
285,south grafton,-29.7,152.95,89.47,21,2,5.35,AU,1696209806
286,coin,36.6595,-4.7564,68.4,63,0,2.04,ES,1696209806
287,guiberoua,6.2392,-6.1727,72.16,99,100,3.47,CI,1696209806
288,tazovsky,67.4667,78.7,32.67,96,100,16.75,RU,1696209806
289,taseyevo,57.2169,94.8978,34.34,68,99,5.99,RU,1696209806
290,puerto baquerizo moreno,-0.9,-89.6,72.72,89,99,9.73,EC,1696209807
291,christchurch,-43.5333,172.6333,68.2,28,0,27.63,NZ,1696209614
292,talakan,50.3167,130.3667,50.68,76,47,6.64,RU,1696209807
293,coruripe,-10.1256,-36.1756,71.73,78,5,7.67,BR,1696209807
294,naberera,-4.2,36.9333,59.9,87,20,6.24,TZ,1696209807
295,kolonia town,6.964,158.206,87.91,74,100,10.36,FM,1696209807
296,brandon,27.9378,-82.2859,80.51,86,40,10.36,US,1696209807
297,celestun,20.8667,-90.4,83.8,78,89,12.19,MX,1696209807
298,keren,15.7778,38.4581,70.47,38,0,6.44,ER,1696209807
299,musan-up,42.2261,129.2078,58.87,41,7,9.01,KP,1696209807
300,ocos,14.5094,-92.1933,77.18,72,75,3.51,GT,1696209808
301,tarauaca,-8.1614,-70.7656,73.38,98,100,3.29,BR,1696209808
302,papao,-17.75,-149.55,83.88,83,7,14.83,PF,1696209808
303,mugia,43.1041,-9.2179,61.92,77,76,9.13,ES,1696209808
304,yanchep,-31.55,115.6833,61.61,61,100,20.98,AU,1696209808
305,klaksvik,62.2266,-6.589,50.92,86,91,22.01,FO,1696209808
306,sitka,57.0531,-135.33,53.49,82,100,14.97,US,1696209808
307,pemangkat,1.1667,108.9667,79.56,77,100,5.21,ID,1696209808
308,arkalyk,50.2486,66.9114,51.62,65,100,11.56,KZ,1696209809
309,portland,45.5234,-122.6762,69.84,51,20,8.05,US,1696209603
310,kinablangan,7.6947,126.5503,85.1,68,83,3.04,PH,1696209809
311,fallsburg,41.732,-74.6013,61.97,92,8,4.34,US,1696209809
312,sterling,39.0062,-77.4286,70.14,78,0,4.61,US,1696209809
313,wagar,16.1525,36.2032,87.89,22,0,6.53,SD,1696209809
314,riolandia,-19.9808,-49.6819,76.64,80,97,4.05,BR,1696209809
315,stjordalshalsen,63.4681,10.9262,47.84,93,100,3.44,NO,1696209809
316,pudozh,61.8099,36.5345,50.95,86,100,14.0,RU,1696209809
317,howard springs,-12.497,131.047,85.91,41,13,4.18,AU,1696209809
318,nabire,-3.3667,135.4833,80.08,80,99,2.53,ID,1696209810
319,lycksele,64.5954,18.6735,30.07,100,18,0.0,SE,1696209810
320,tsiombe,-25.3,45.4833,68.79,91,35,4.43,MG,1696209810
321,mitu,1.1983,-70.1733,74.37,92,100,1.63,CO,1696209810
322,sparti,37.0733,22.4297,67.95,60,0,3.2,GR,1696209810
323,de aar,-30.6497,24.0123,51.51,40,0,7.9,ZA,1696209810
324,ujae,8.9322,165.7642,83.64,75,35,9.55,MH,1696209810
325,zhigalovo,54.8097,105.1578,29.07,95,49,4.0,RU,1696209810
326,makurazaki,31.2667,130.3167,74.37,70,90,2.62,JP,1696209811
327,touros,-5.1989,-35.4608,76.39,76,34,12.48,BR,1696209811
328,cabugao,17.7931,120.4578,82.26,79,100,0.76,PH,1696209811
329,ghadamis,30.1337,9.5007,73.53,38,0,13.98,LY,1696209811
330,port lincoln,-34.7333,135.8667,69.93,48,0,10.78,AU,1696209663
331,poronaysk,49.2167,143.1167,57.29,78,58,8.16,RU,1696209811
332,ust-tsilma,65.441,52.1498,52.61,94,66,5.01,RU,1696209811
333,chonchi,-42.6128,-73.8092,43.81,98,94,1.45,CL,1696209811
334,palu,-0.8917,119.8707,87.6,66,99,1.07,ID,1696209811
335,antsiranana,-12.2787,49.2917,71.6,92,66,8.79,MG,1696209811
336,dewas,22.9667,76.0667,68.18,86,6,4.97,IN,1696209812
337,arang,21.2,81.9667,79.12,88,99,6.15,IN,1696209812
338,omdurman,15.6445,32.4777,92.89,32,0,8.77,SD,1696209812
339,susuman,62.7833,148.1667,33.98,73,16,3.0,RU,1696209812
340,praia da vitoria,38.7333,-27.0667,68.25,73,20,7.94,PT,1696209812
341,longyearbyen,78.2186,15.6401,26.44,59,75,23.02,SJ,1696209812
342,codrington,-38.2667,141.9667,68.04,46,0,13.38,AU,1696209812
343,ust'-kulom,61.6864,53.6902,50.63,95,57,7.27,RU,1696209812
344,penarth,51.4394,-3.1761,63.54,95,100,5.75,GB,1696209812
345,weddington,35.0224,-80.7609,69.12,79,0,0.0,US,1696209812
346,taitung city,22.7583,121.1444,86.27,70,40,6.91,TW,1696209813
347,ina,35.8276,137.9538,68.7,67,91,5.17,JP,1696209813
348,grand falls-windsor,48.9332,-55.6649,58.5,83,8,5.75,CA,1696209813
349,magadi,12.9667,77.2333,71.76,95,93,8.99,IN,1696209813
350,lichinga,-13.3128,35.2406,66.29,68,0,8.05,MZ,1696209813
351,quellon,-43.1167,-73.6167,41.14,85,25,1.59,CL,1696209813
352,saint-philippe,-21.3585,55.7679,71.19,75,0,5.86,RE,1696209813
353,jiexiu,37.0244,111.9125,60.67,46,100,1.32,CN,1696209813
354,kodinsk,58.6881,99.1844,29.44,79,93,7.61,RU,1696209813
355,tual,-5.6667,132.75,79.57,86,87,12.97,ID,1696209813
356,veraval,20.9,70.3667,78.03,73,66,11.56,IN,1696209813
357,tongchuanshi,35.0806,109.0897,53.76,85,100,1.97,CN,1696209814
358,huinan,42.6225,126.2614,58.21,49,1,9.19,CN,1696209814
359,avra valley,32.4379,-111.3154,88.59,20,0,11.5,US,1696209814
360,bouznika,33.7894,-7.1597,64.15,82,100,5.75,MA,1696209814
361,princeville,45.7668,-61.2985,56.79,95,0,4.61,CA,1696209814
362,wabag,-5.4781,143.7021,61.88,92,98,1.81,PG,1696209814
363,remire-montjoly,4.9167,-52.2667,80.64,83,0,6.91,GF,1696209814
364,turbat,26.0023,63.044,82.51,17,0,3.71,PK,1696209814
365,ulsteinvik,62.3432,5.8487,57.76,88,99,8.01,NO,1696209814
366,connell,46.6635,-118.8611,68.36,43,11,3.0,US,1696209814
367,broken hill,-31.95,141.4333,91.87,13,14,30.38,AU,1696209815
368,markala,13.7021,-6.0659,83.3,57,100,7.54,ML,1696209815
369,road town,18.4167,-64.6167,84.29,79,40,8.05,VG,1696209815
370,playa vicente,17.8333,-95.8167,77.7,91,83,4.65,MX,1696209815
371,filadelfia,39.9523,-75.1638,70.16,81,0,0.0,US,1696209551
372,laojunmiao,39.8333,97.7333,53.17,30,0,2.08,CN,1696209815
373,imbituba,-28.24,-48.6703,60.87,77,95,10.04,BR,1696209815
374,vallenar,-28.5708,-70.7581,53.58,69,0,3.56,CL,1696209815
375,nadi,-17.8,177.4167,82.4,47,40,19.57,FJ,1696209815
376,san antonio de pale,-1.4014,5.6325,77.13,84,93,10.56,GQ,1696209815
377,gordonvale,-17.0936,145.7842,85.91,67,34,7.2,AU,1696209815
378,puerto aysen,-45.4,-72.7,36.54,99,86,3.49,CL,1696209816
379,guixi,28.2886,117.2133,73.8,73,3,9.95,CN,1696209816
380,vallegrande,-18.4897,-64.1069,56.77,75,96,3.4,BO,1696209816
381,akureyri,65.6835,-18.0878,44.53,76,100,11.5,IS,1696209816
382,kruisfontein,-34.0033,24.7314,53.89,84,5,5.3,ZA,1696209816
383,akcakoca,41.0866,31.1162,66.15,82,100,2.15,TR,1696209816
384,karakulino,56.012,53.7067,55.22,58,63,10.76,RU,1696209816
385,alta,69.9689,23.2717,34.86,87,75,5.75,NO,1696209816
386,bamboo flat,11.7,92.7167,80.69,84,100,10.96,IN,1696209817
387,pimentel,-6.8367,-79.9342,70.09,78,0,17.27,PE,1696209817
388,puerto armuelles,8.2833,-82.8667,81.09,85,100,5.01,PA,1696209817
389,rongelap,11.1635,166.8941,84.36,73,55,14.56,MH,1696209817
390,pahrump,36.2083,-115.9839,68.85,32,7,5.99,US,1696209817
391,kattivakkam,13.2167,80.3167,82.49,84,100,14.05,IN,1696209817
392,al kharijah,25.4514,30.5464,78.42,35,20,11.97,EG,1696209817
393,mogadishu,2.0371,45.3438,78.28,83,22,13.56,SO,1696209585
394,rundu,-17.9333,19.7667,71.01,19,0,5.44,NA,1696209817
395,tongouson,5.0214,120.1328,83.39,78,100,16.78,PH,1696209817
396,cidreira,-30.1811,-50.2056,55.42,70,0,5.66,BR,1696209817
397,levuka,50.1834,-105.4011,53.42,88,100,9.75,CA,1696209818
398,pangoa,-12.1167,-73.0,71.1,90,100,3.04,PE,1696209796
399,kalach-na-donu,48.691,43.5264,59.23,55,99,5.39,RU,1696209818
400,gulf shores,30.246,-87.7008,80.01,68,0,3.44,US,1696209818
401,kungur,57.4368,56.9593,52.79,67,56,14.41,RU,1696209818
402,temiskaming shores,47.4938,-79.7153,58.8,83,100,3.04,CA,1696209818
403,bardai,11.65,7.2333,72.09,84,100,7.18,NG,1696209818
404,kuqa,41.7278,82.9364,62.78,39,6,2.24,CN,1696209818
405,calama,-22.4667,-68.9333,61.29,14,0,6.91,CL,1696209818
406,fuyang,32.9,115.8167,62.96,89,100,4.76,CN,1696209818
407,olyokminsk,60.3736,120.4264,41.68,83,100,11.9,RU,1696209818
408,el granada,37.5027,-122.4694,73.04,72,0,14.97,US,1696209819
409,aasiaat,68.7098,-52.8699,19.35,79,8,7.92,GL,1696209819
410,catarama,-1.5833,-79.4667,80.22,67,99,2.53,EC,1696209819
411,san rafael del sur,11.8485,-86.4384,81.57,82,82,5.14,NI,1696209819
412,cururupu,-1.8283,-44.8683,76.37,87,9,4.63,BR,1696209819
413,minas de marcona,-15.2119,-75.1103,58.41,84,61,10.87,PE,1696209819
414,richards bay,-28.783,32.0377,63.41,64,96,3.94,ZA,1696209819
415,eleskirt,39.8033,42.6736,50.63,82,100,4.09,TR,1696209774
416,castillos,-34.1667,-53.8333,48.13,84,40,5.82,UY,1696209820
417,hafar al-batin,28.4328,45.9708,79.38,22,0,4.61,SA,1696209820
418,caminauit,12.3314,121.0825,82.78,79,100,4.63,PH,1696209821
419,santa rosa de osos,6.6474,-75.4603,57.87,97,100,0.96,CO,1696209821
420,vilhena,-12.7406,-60.1458,73.67,85,98,3.51,BR,1696209821
421,amherst,41.3978,-82.2224,68.52,89,0,0.0,US,1696209811
422,marand,38.4329,45.7749,60.03,63,3,6.02,IR,1696209821
423,nizao,18.25,-70.2,83.35,83,100,12.33,DO,1696209821
424,rosales,15.8944,120.6328,80.49,87,100,2.53,PH,1696209821
425,crane,31.3974,-102.3501,79.52,52,3,22.26,US,1696209821
426,bunol,39.4167,-0.7833,69.08,63,6,2.01,ES,1696209821
427,san juan,-31.5375,-68.5364,72.19,25,0,4.88,AR,1696209821
428,blythe,33.6103,-114.5964,73.85,49,100,11.5,US,1696209543
429,reggane,26.7158,0.1714,86.7,27,0,21.25,DZ,1696209821
430,capao da canoa,-29.7456,-50.0097,54.59,77,0,4.76,BR,1696209822
431,gorey,52.6747,-6.2925,56.48,89,100,5.86,IE,1696209822
432,pompeu,-19.2244,-44.9353,68.74,83,100,2.46,BR,1696209822
433,houghton,47.1219,-88.569,69.64,96,0,3.44,US,1696209565
434,bubaque,11.2833,-15.8333,82.4,82,100,9.31,GW,1696209822
435,bolobo,-2.1667,16.2333,74.21,90,36,0.94,CD,1696209822
436,katsuren-haebaru,26.3369,127.8719,88.57,67,40,19.57,JP,1696209822
437,north bend,43.4065,-124.2243,64.24,77,0,16.11,US,1696209700
438,loikaw,19.6742,97.2094,69.62,99,99,3.11,MM,1696209822
439,smithers,54.7804,-127.1743,46.72,93,100,0.0,CA,1696209822
440,portage la prairie,49.9728,-98.2926,64.89,68,88,9.66,CA,1696209604
441,malango,-2.9627,119.9001,79.5,60,100,2.71,ID,1696209822
442,nelson bay,-32.7167,152.15,73.99,61,0,5.99,AU,1696209822
443,rusape,-18.5278,32.1284,63.27,83,91,10.25,ZW,1696209823
444,dzhangala,49.2167,50.3333,56.12,59,87,7.2,KZ,1696209823
445,tansen,27.8673,83.5467,64.53,93,99,2.68,NP,1696209823
446,madalena,41.2162,-8.3345,69.46,68,6,1.5,PT,1696209823
447,ponta delgada,37.7333,-25.6667,68.72,73,20,13.8,PT,1696209823
448,flying fish cove,-10.4217,105.6791,76.68,78,75,13.8,CX,1696209823
449,xapuri,-10.6517,-68.5044,76.42,86,100,2.73,BR,1696209823
450,moranbah,-22.0016,148.0466,80.98,35,0,13.2,AU,1696209823
451,ekibastuz,51.6667,75.3667,43.56,88,43,6.76,KZ,1696209823
452,arawa,-6.2132,155.5367,84.92,80,100,3.6,PG,1696209824
453,rizhao,35.4275,119.4553,68.04,53,100,2.73,CN,1696209824
454,choibalsan,48.0667,114.5,54.55,35,100,5.86,MN,1696209824
455,thompson,55.7435,-97.8558,37.56,100,100,10.36,CA,1696209824
456,mejit,10.2753,170.8646,83.07,77,99,14.07,MH,1696209824
457,tomohon,1.3346,124.8392,81.54,47,28,2.53,ID,1696209824
458,barkhan,29.8977,69.5256,64.96,14,0,5.35,PK,1696209824
459,talcahuano,-36.7167,-73.1167,53.28,58,100,5.75,CL,1696209824
460,prado,-17.3411,-39.2208,71.4,79,15,6.26,BR,1696209824
461,new plymouth,-39.0667,174.0833,58.8,92,100,18.14,NZ,1696209774
462,nar'yan-mar,67.6713,53.087,51.12,96,82,8.01,RU,1696209824
463,zeliezovce,48.0508,18.6542,56.79,67,47,1.63,SK,1696209825
464,padang,-0.9492,100.3543,82.45,87,100,4.45,ID,1696209825
465,karatau,43.1667,70.4667,54.39,47,74,3.85,KZ,1696209825
466,zunyi,27.6867,106.9072,69.82,92,98,4.56,CN,1696209825
467,prymors'k,46.7348,36.3443,66.42,49,63,9.01,UA,1696209825
468,batumi,41.6416,41.6359,66.18,94,75,10.36,GE,1696209825
469,alesund,62.4723,6.1549,57.76,88,75,17.27,NO,1696209825
470,bonanza,14.0289,-84.591,74.53,99,91,1.16,NI,1696209825
471,tres arroyos,-38.3739,-60.2798,49.64,60,23,10.42,AR,1696209825
472,saudarkrokur,65.7461,-19.6394,43.32,93,100,10.42,IS,1696209826
473,serang,-6.1149,106.1502,82.67,62,63,3.67,ID,1696209826
474,puerto san jose,13.9256,-90.8244,82.2,77,100,1.9,GT,1696209826
475,aginskoye,51.1,114.53,52.27,42,100,1.59,RU,1696209826
476,abu jibeha,11.4562,31.2285,74.89,78,98,2.84,SD,1696209826
477,pskov,57.8136,28.3496,46.31,93,20,7.0,RU,1696209826
478,mariinsk,56.2139,87.7472,33.01,69,100,4.0,RU,1696209826
479,slave lake,55.2834,-114.769,55.38,50,40,13.8,CA,1696209826
480,prairieville,30.303,-90.9721,81.01,66,0,6.58,US,1696209713
481,carrigaline,51.8117,-8.3986,55.15,94,100,6.91,IE,1696209826
482,ghanzi,-21.5667,21.7833,69.06,15,0,10.09,BW,1696209827
483,holualoa,19.6228,-155.9522,78.64,81,100,8.05,US,1696209827
484,kolonia,50.9333,6.95,63.82,84,0,2.3,DE,1696209745
485,byron bay,-28.65,153.6167,79.93,46,0,12.75,AU,1696209827
486,acarau,-2.8856,-40.12,77.97,81,5,14.85,BR,1696209827
487,taoudenni,22.6783,-3.9836,90.75,12,8,9.13,ML,1696209827
488,xiongzhou,25.1167,114.3,80.22,78,93,3.62,CN,1696209827
489,la ronge,55.1001,-105.2842,44.85,81,100,5.75,CA,1696209827
490,minot air force base,48.4209,-101.3391,64.58,93,100,9.22,US,1696209827
491,bel ombre,-4.6167,55.4167,80.44,83,40,11.5,SC,1696209827
492,jabor,5.921,169.6434,83.79,75,14,6.02,MH,1696209828
493,coxim,-18.5067,-54.76,88.36,46,79,4.7,BR,1696209722
494,rocha,-34.4833,-54.3333,44.87,92,0,4.25,UY,1696209746
495,jijel,36.8205,5.7667,67.95,73,0,3.44,DZ,1696209828
496,hailar,49.2,119.7,52.45,47,19,4.9,CN,1696209828
497,sligo,54.2697,-8.4694,52.68,94,53,9.04,IE,1696209828
498,atchison,39.563,-95.1216,77.72,55,96,8.66,US,1696209828
499,san luis de la loma,17.2706,-100.8939,79.7,89,100,7.25,MX,1696209828
500,paripiranga,-10.6875,-37.8617,64.18,91,0,4.52,BR,1696209828
501,nuku'alofa,-21.1333,-175.2,75.54,50,40,21.85,TO,1696209829
502,boguchany,58.3814,97.4531,31.86,71,97,8.01,RU,1696209829
503,soto la marina,23.7667,-98.2167,81.7,73,5,6.98,MX,1696209829
504,monteagudo,-19.8167,-63.9833,63.7,59,5,2.3,BO,1696209829
505,eden,36.4885,-79.7667,65.01,94,0,0.0,US,1696209675
506,belawan,3.7755,98.6832,80.89,86,90,3.98,ID,1696209829
507,buka,40.8108,69.1986,54.09,43,45,3.87,UZ,1696209829
508,saint-vith,50.2815,6.1272,60.39,82,61,4.41,BE,1696209829
509,odda,60.0691,6.5457,55.78,100,100,6.02,NO,1696209829
510,thunder bay,48.4001,-89.3168,60.78,100,100,5.75,CA,1696209633
511,karkira,36.9292,6.5856,69.22,82,0,3.67,DZ,1696209829
512,nieuw amsterdam,5.8833,-55.0833,84.02,78,100,10.78,SR,1696209829
513,tvoroyri,61.5556,-6.8111,50.95,90,100,25.59,FO,1696209830
514,okhotsk,59.3833,143.3,43.12,82,78,3.56,RU,1696209830
515,page,36.9147,-111.4558,67.78,48,75,5.75,US,1696209830
516,manokwari,-0.8667,134.0833,83.35,73,88,7.45,ID,1696209830
517,kuressaare,58.2481,22.5039,50.95,100,78,4.0,EE,1696209812
518,porto-vecchio,41.591,9.2795,65.73,94,0,1.14,FR,1696209830
519,northam,51.0333,-4.2167,60.39,98,100,3.74,GB,1696209830
520,conception bay south,47.4999,-52.9981,55.74,91,5,11.27,CA,1696209830
521,vershino-darasunskiy,52.35,115.5167,48.15,48,100,3.65,RU,1696209830
522,zonguldak,41.25,31.8333,57.36,94,99,3.69,TR,1696209661
523,vorkuta,67.5,64.0,48.97,95,100,13.8,RU,1696209830
524,labrador city,52.9463,-66.9114,39.11,87,0,4.61,CA,1696209690
525,kingsville,27.5159,-97.8561,82.81,87,75,6.91,US,1696209831
526,phongsali,21.6833,102.1058,63.7,97,86,0.45,LA,1696209831
527,pangody,65.85,74.4859,40.03,100,100,11.03,RU,1696209831
528,acapulco de juarez,16.8634,-99.8901,82.22,74,100,4.61,MX,1696209743
529,suva,-18.1416,178.4415,74.68,73,75,13.8,FJ,1696209831
530,ancud,-41.8697,-73.8203,43.57,91,100,2.86,CL,1696209729
531,montoro,38.0241,-4.3834,76.28,32,0,1.88,ES,1696209831
532,fray luis beltran,-39.3167,-65.7667,71.19,26,100,3.71,AR,1696209831
533,chengam,12.3,78.8,73.58,89,98,4.92,IN,1696209831
534,igarka,67.4667,86.5833,22.91,80,27,7.9,RU,1696209831
535,al bardiyah,31.7561,25.0865,73.31,67,0,10.25,LY,1696209831
536,tomatlan,19.9333,-105.25,80.02,92,53,4.41,MX,1696209831
537,san francisco de la paz,14.9,-86.2,71.26,92,100,2.91,HN,1696209832
538,mata-utu,-13.2816,-176.1745,80.82,79,100,23.4,WF,1696209832
539,weno,7.4515,151.8468,87.75,84,75,4.61,FM,1696209832
540,mersing,2.4312,103.8405,78.71,94,20,3.44,MY,1696209832
541,banswada,18.3833,77.8833,74.52,95,98,1.59,IN,1696209832
542,chiredzi,-21.05,31.6667,64.92,70,94,12.39,ZW,1696209832
543,chernyshevskiy,63.0128,112.4714,29.84,79,98,11.79,RU,1696209832
544,mahibadhoo,3.7833,72.9667,81.7,78,100,10.13,MV,1696209832
545,chiapa de corzo,16.7,-93.0,82.78,65,40,17.27,MX,1696209832
546,dhuusamarreeb,5.535,46.3861,76.19,80,4,15.79,SO,1696209832
547,laguna,38.421,-121.4238,76.05,49,0,9.22,US,1696209833
548,pangai,-19.8,-174.35,77.11,57,75,18.41,TO,1696209833
549,sirte,31.2089,16.5887,74.46,62,0,7.43,LY,1696209833
550,altamira,-3.2033,-52.2064,82.08,51,82,2.66,BR,1696209833
551,moroni,-11.7022,43.2551,74.98,79,5,2.08,KM,1696209833
552,mar del plata,-38.0023,-57.5575,51.1,90,40,4.61,AR,1696209604
553,montecanal,41.6297,-0.9387,71.49,49,0,4.61,ES,1696209833
554,dunedin,-45.8742,170.5036,65.07,51,57,15.01,NZ,1696209833
555,el trebol,-32.2008,-61.7014,61.02,53,0,1.99,AR,1696209833
556,floro,61.5996,5.0328,53.56,87,75,6.91,NO,1696209833
557,magnitka,55.3475,59.6961,42.98,83,64,5.46,RU,1696209833
558,prince rupert,54.3161,-130.3201,53.69,84,100,19.57,CA,1696209629
559,zhangye,38.9342,100.4517,59.23,39,12,1.07,CN,1696209833
560,bereznik,62.8551,42.7072,49.89,93,100,10.58,RU,1696209834
561,tionk essil,12.7856,-16.5217,80.65,84,86,5.97,SN,1696209834
562,kotido,2.9806,34.1331,76.48,50,75,9.04,UG,1696209834
563,trevelin,-43.0858,-71.4639,45.88,85,94,4.25,AR,1696209834
564,termas de rio hondo,-27.4998,-64.8604,70.48,41,0,7.94,AR,1696209834
